City,Lat,Lng,Max Temp,Humidity,Cloudiness,Wind Speed,Country,Date
port hawkesbury,45.62,-61.35,51.01,100.0,90.0,11.41,CA,1603320403.0
maputo,-25.97,32.59,70.0,78.0,16.0,4.0,MZ,1603320151.0
busselton,-33.65,115.33,55.0,66.0,1.0,10.92,AU,1603320403.0
kapaa,22.08,-159.32,84.99,74.0,90.0,3.36,US,1603320403.0
alice springs,-23.7,133.88,82.4,34.0,2.0,6.93,AU,1603320322.0
punta arenas,-53.15,-70.92,50.0,46.0,90.0,9.17,CL,1603320213.0
victoria,22.29,114.16,73.99,67.0,98.0,16.42,HK,1603320295.0
mareeba,-17.0,145.43,84.0,65.0,20.0,11.41,AU,1603320403.0
acapulco,16.86,-99.89,87.8,70.0,75.0,4.7,MX,1603320135.0
verkhoyansk,67.54,133.38,9.82,94.0,100.0,2.77,RU,1603320403.0
chuy,-33.7,-53.46,58.05,74.0,75.0,13.31,UY,1603320403.0
cidreira,-30.18,-50.21,66.29,89.0,100.0,16.53,BR,1603320404.0
belushya guba,,,,,,,,
tiksi,71.69,128.87,10.89,94.0,100.0,4.85,RU,1603320404.0
trelew,-43.25,-65.31,61.07,35.0,91.0,20.74,AR,1603320404.0
yellowknife,62.46,-114.35,26.6,73.0,90.0,13.87,CA,1603320162.0
kijang,35.24,129.21,59.0,87.0,90.0,6.93,KR,1603320404.0
mahebourg,-20.41,57.7,75.2,73.0,40.0,11.41,MU,1603320404.0
thompson,55.74,-97.86,30.2,54.0,90.0,6.93,CA,1603320404.0
ushuaia,-54.8,-68.3,51.8,50.0,75.0,19.46,AR,1603320404.0
mataura,-46.19,168.86,60.01,57.0,97.0,5.01,NZ,1603320404.0
rikitea,-23.12,-134.97,74.28,70.0,64.0,5.93,PF,1603320404.0
sioux lookout,50.1,-91.92,32.0,98.0,90.0,4.7,CA,1603320405.0
khatanga,71.97,102.5,3.65,91.0,1.0,8.39,RU,1603320405.0
severo-kurilsk,50.68,156.12,42.85,68.0,82.0,16.62,RU,1603320405.0
cape town,-33.93,18.42,57.99,87.0,0.0,17.22,ZA,1603320405.0
banyo,6.75,11.82,65.55,80.0,31.0,2.64,CM,1603320405.0
houma,29.6,-90.72,82.0,60.0,8.0,8.01,US,1603320405.0
geraldton,-28.77,114.6,51.8,93.0,0.0,3.36,AU,1603320405.0
vaini,-21.2,-175.2,75.2,73.0,90.0,9.17,TO,1603320405.0
hilo,19.73,-155.09,86.0,55.0,1.0,10.29,US,1603320405.0
soe,-9.86,124.28,75.65,58.0,7.0,2.3,ID,1603320405.0
avarua,-21.21,-159.78,77.0,83.0,60.0,6.93,CK,1603320318.0
kahului,20.89,-156.47,91.4,36.0,20.0,9.17,US,1603320240.0
tarragona,41.13,1.25,64.99,93.0,40.0,2.24,ES,1603320406.0
saldanha,-33.01,17.94,51.8,81.0,0.0,3.36,ZA,1603320406.0
kaeo,-35.1,173.78,62.28,80.0,100.0,5.23,NZ,1603320406.0
jamestown,42.1,-79.24,57.0,93.0,90.0,4.7,US,1603320307.0
nikolskoye,59.7,30.79,37.4,93.0,90.0,6.71,RU,1603320406.0
kuche,,,,,,,,
mvuma,-19.28,30.53,63.27,82.0,8.0,10.38,ZW,1603320406.0
puerto ayora,-0.74,-90.35,69.01,91.0,91.0,8.99,EC,1603320406.0
norman wells,65.28,-126.83,23.0,85.0,90.0,16.11,CA,1603320331.0
komsomolskiy,40.43,71.72,53.6,46.0,69.0,6.93,UZ,1603320406.0
bethel,41.37,-73.41,66.2,88.0,90.0,4.7,US,1603320394.0
bacungan,9.91,118.7,77.0,94.0,40.0,4.7,PH,1603320407.0
kabwe,-14.45,28.45,73.54,42.0,0.0,10.74,ZM,1603320407.0
albany,42.6,-73.97,69.01,82.0,37.0,5.48,US,1603320407.0
new york,40.71,-74.01,68.0,82.0,90.0,3.36,US,1603319629.0
port hardy,50.7,-127.42,50.0,66.0,20.0,9.17,CA,1603320407.0
nioro,13.35,-15.75,77.34,90.0,72.0,6.02,GM,1603320407.0
labuhan,-6.88,112.21,79.83,80.0,97.0,5.53,ID,1603320407.0
marzuq,14.4,46.47,68.34,25.0,16.0,3.87,YE,1603320407.0
carnarvon,-24.87,113.63,64.4,68.0,90.0,11.41,AU,1603320190.0
baglung,28.27,83.59,59.67,46.0,4.0,5.99,NP,1603320407.0
amderma,,,,,,,,
kavieng,-2.57,150.8,84.27,71.0,53.0,10.42,PG,1603320407.0
rawson,-43.3,-65.1,58.57,42.0,74.0,23.8,AR,1603320330.0
nelson bay,-32.72,152.15,72.0,68.0,100.0,4.7,AU,1603320408.0
wasilla,61.58,-149.44,42.8,33.0,1.0,13.87,US,1603320144.0
coahuayana,18.73,-103.68,84.2,74.0,40.0,11.41,MX,1603320311.0
kodiak,57.79,-152.41,46.4,45.0,1.0,8.05,US,1603320408.0
mehamn,71.04,27.85,30.52,93.0,8.0,6.22,NO,1603320408.0
abaza,52.66,90.09,35.89,79.0,87.0,4.97,RU,1603320408.0
poum,-20.23,164.02,77.05,73.0,3.0,8.99,NC,1603320408.0
atuona,-9.8,-139.03,77.86,70.0,0.0,16.44,PF,1603320408.0
himora,,,,,,,,
hamilton,39.18,-84.53,69.01,90.0,87.0,1.01,US,1603320204.0
georgetown,5.41,100.34,78.8,88.0,20.0,6.93,MY,1603320155.0
conceicao da barra,-18.59,-39.73,74.48,85.0,74.0,5.59,BR,1603320409.0
half moon bay,37.46,-122.43,78.8,72.0,1.0,10.29,US,1603320409.0
butaritari,3.07,172.79,81.99,73.0,10.0,10.18,KI,1603320409.0
port-gentil,-0.72,8.78,78.8,88.0,75.0,8.05,GA,1603320409.0
sisimiut,66.94,-53.67,29.95,95.0,90.0,7.54,GL,1603320409.0
changde,29.05,111.68,56.57,85.0,5.0,3.27,CN,1603320409.0
san policarpo,12.18,125.51,80.53,83.0,100.0,6.93,PH,1603320409.0
ilulissat,69.22,-51.1,26.6,73.0,100.0,4.7,GL,1603320409.0
sobolevo,54.43,31.9,41.67,95.0,100.0,4.7,RU,1603320409.0
mayo,38.89,-76.51,71.6,94.0,75.0,8.05,US,1603320269.0
arraial do cabo,-22.97,-42.03,73.04,89.0,15.0,13.49,BR,1603320409.0
pangnirtung,66.15,-65.71,26.6,86.0,90.0,4.7,CA,1603320409.0
pemangkat,1.17,108.97,78.13,88.0,88.0,5.93,ID,1603320410.0
qingyuan,23.7,113.03,69.8,56.0,75.0,13.42,CN,1603320410.0
honiara,-9.43,159.95,77.0,94.0,90.0,9.17,SB,1603320410.0
whitehorse,60.72,-135.05,21.2,53.0,40.0,9.17,CA,1603320303.0
fortuna,40.6,-124.16,64.0,55.0,1.0,18.34,US,1603320410.0
pevek,69.7,170.31,29.8,98.0,93.0,0.29,RU,1603320410.0
kamenskoye,,,,,,,,
port alfred,-33.59,26.89,62.78,86.0,0.0,12.33,ZA,1603320410.0
pacific grove,36.62,-121.92,78.01,60.0,1.0,5.82,US,1603320159.0
kathu,7.92,98.33,86.0,88.0,20.0,2.24,TH,1603320410.0
mys shmidta,,,,,,,,
kruisfontein,-34.0,24.73,54.93,78.0,0.0,4.92,ZA,1603320411.0
port blair,11.67,92.75,80.92,83.0,76.0,10.87,IN,1603320411.0
hithadhoo,-0.6,73.08,82.49,75.0,12.0,14.0,MV,1603320411.0
hobart,-42.88,147.33,57.99,81.0,75.0,2.24,AU,1603320411.0
tairua,-37.02,175.85,66.58,59.0,21.0,4.7,NZ,1603320411.0
santa fe,-31.63,-60.7,64.87,80.0,89.0,13.04,AR,1603320191.0
hermanus,-34.42,19.23,55.0,89.0,0.0,8.63,ZA,1603320411.0
mount isa,-20.73,139.5,86.0,42.0,5.0,8.05,AU,1603320411.0
hasaki,35.73,140.83,59.0,93.0,75.0,5.82,JP,1603320161.0
dikson,73.51,80.55,23.36,96.0,91.0,10.36,RU,1603320411.0
sena madureira,-9.07,-68.66,76.68,88.0,69.0,0.58,BR,1603320411.0
nizhneyansk,,,,,,,,
baykit,61.67,96.37,37.92,88.0,100.0,5.48,RU,1603320412.0
taolanaro,,,,,,,,
chokurdakh,70.63,147.92,10.62,94.0,100.0,4.63,RU,1603320412.0
yulara,-25.24,130.99,78.8,41.0,73.0,5.82,AU,1603320412.0
bulgan,48.81,103.53,28.56,90.0,0.0,2.51,MN,1603320412.0
meyungs,,,,,,,,
nantucket,41.28,-70.1,63.0,100.0,1.0,6.93,US,1603320118.0
sharan,54.82,54.0,30.42,96.0,94.0,13.91,RU,1603320412.0
imbituba,-28.24,-48.67,73.4,83.0,40.0,10.29,BR,1603320412.0
tuktoyaktuk,69.45,-133.04,19.4,79.0,40.0,9.17,CA,1603320412.0
roebourne,-20.78,117.13,74.3,34.0,75.0,5.23,AU,1603320412.0
central point,42.38,-122.92,66.99,35.0,42.0,8.23,US,1603320412.0
saskylakh,71.92,114.08,8.94,94.0,88.0,6.11,RU,1603320413.0
tortoli,39.93,9.66,66.2,100.0,40.0,6.93,IT,1603320413.0
ahipara,-35.17,173.17,60.82,84.0,100.0,6.6,NZ,1603320413.0
sitka,57.05,-135.33,39.2,38.0,1.0,9.17,US,1603320413.0
barentsburg,,,,,,,,
krasnokamsk,58.08,55.75,30.2,86.0,90.0,11.18,RU,1603320413.0
cabo san lucas,22.89,-109.91,90.0,52.0,5.0,7.61,MX,1603320413.0
lom sak,16.78,101.24,68.94,86.0,91.0,2.37,TH,1603320413.0
torbay,47.67,-52.73,48.0,87.0,90.0,11.41,CA,1603320413.0
tessalit,20.2,1.01,84.11,15.0,0.0,8.55,ML,1603320413.0
riverton,40.52,-111.94,73.0,42.0,1.0,10.29,US,1603320413.0
bavly,54.39,53.26,29.26,95.0,60.0,11.97,RU,1603320414.0
esperance,-33.87,121.9,57.2,100.0,75.0,8.05,AU,1603320414.0
aykhal,66.0,111.5,-0.4,91.0,90.0,2.24,RU,1603320414.0
aasiaat,68.71,-52.87,23.27,96.0,94.0,1.54,GL,1603320414.0
oktyabrskoye,43.06,44.74,33.8,61.0,57.0,6.71,RU,1603320414.0
isangel,-19.55,169.27,82.4,69.0,20.0,9.17,VU,1603320414.0
tasiilaq,65.61,-37.64,30.2,86.0,100.0,3.36,GL,1603320414.0
xiongzhou,25.12,114.3,61.3,71.0,95.0,3.65,CN,1603320414.0
qaqortoq,60.72,-46.03,32.0,85.0,100.0,3.36,GL,1603320414.0
elizabeth city,36.29,-76.25,71.01,81.0,99.0,5.44,US,1603320414.0
tuatapere,-46.13,167.68,60.01,57.0,94.0,5.01,NZ,1603320414.0
fruitvale,39.08,-108.5,75.99,11.0,1.0,13.87,US,1603320415.0
san luis,-33.3,-66.34,64.33,61.0,88.0,11.41,AR,1603320415.0
eydhafushi,5.1,73.07,81.61,78.0,48.0,12.26,MV,1603320415.0
tommot,58.96,126.29,10.2,94.0,85.0,1.32,RU,1603320415.0
putnok,48.3,20.43,46.35,82.0,65.0,0.69,HU,1603320415.0
luangwa,-15.62,30.42,82.6,45.0,0.0,12.71,ZM,1603320415.0
new norfolk,-42.78,147.06,57.99,73.0,97.0,1.99,AU,1603320415.0
strezhevoy,60.73,77.59,32.0,99.0,90.0,4.47,RU,1603320415.0
souillac,-20.52,57.52,75.2,73.0,40.0,11.41,MU,1603320415.0
north platte,41.12,-100.77,51.8,71.0,90.0,11.41,US,1603320415.0
berikulskiy,,,,,,,,
arman,59.7,150.17,31.12,83.0,27.0,6.71,RU,1603320415.0
korla,41.76,86.15,43.88,53.0,0.0,1.43,CN,1603320416.0
namibe,-15.2,12.15,69.69,82.0,91.0,2.37,AO,1603320416.0
gimli,50.63,-96.99,34.0,98.0,87.0,8.01,CA,1603320128.0
kushima,31.46,131.23,69.8,94.0,75.0,6.93,JP,1603320416.0
gazni,,,,,,,,
bredasdorp,-34.53,20.04,55.4,87.0,0.0,2.24,ZA,1603320416.0
meulaboh,4.14,96.13,76.17,85.0,99.0,5.14,ID,1603320416.0
teguldet,57.31,88.17,38.77,79.0,100.0,7.61,RU,1603320416.0
attawapiskat,,,,,,,,
sulangan,11.14,123.72,83.61,72.0,87.0,7.7,PH,1603320416.0
turukhansk,65.82,87.98,21.6,98.0,95.0,6.91,RU,1603320416.0
arlit,18.74,7.39,88.39,12.0,8.0,8.5,NE,1603320417.0
san isidro,-12.12,-77.05,64.4,72.0,38.0,17.22,PE,1603320417.0
khandbari,27.37,87.2,63.52,57.0,2.0,3.22,NP,1603320417.0
el wasta,,,,,,,,
warrington,53.39,-2.58,53.6,81.0,75.0,14.99,GB,1603320417.0
bambous virieux,-20.34,57.76,75.2,73.0,40.0,11.41,MU,1603320417.0
challapata,-18.9,-66.77,55.09,49.0,72.0,13.49,BO,1603320417.0
vardo,70.37,31.11,30.2,92.0,75.0,4.7,NO,1603320417.0
east london,-33.02,27.91,64.96,80.0,1.0,13.78,ZA,1603320417.0
lasa,46.62,10.7,52.0,100.0,5.0,3.15,IT,1603320417.0
williamsport,41.24,-77.0,73.4,60.0,40.0,6.93,US,1603320371.0
mitsamiouli,-11.38,43.28,79.97,73.0,10.0,8.21,KM,1603320417.0
bathsheba,13.22,-59.52,82.4,78.0,20.0,11.41,BB,1603320418.0
chipinge,-20.19,32.62,61.77,97.0,22.0,5.91,ZW,1603320418.0
lagoa,39.05,-27.98,63.0,70.0,49.0,19.86,PT,1603320418.0
cherskiy,68.75,161.3,19.24,95.0,45.0,8.01,RU,1603320418.0
bluff,-46.6,168.33,60.01,57.0,100.0,5.01,NZ,1603320226.0
lakselv,70.05,24.97,24.8,85.0,60.0,19.46,NO,1603320418.0
tsihombe,,,,,,,,
saint-philippe,-21.36,55.77,73.4,64.0,20.0,6.93,RE,1603320418.0
nanortalik,60.14,-45.24,33.53,87.0,100.0,15.73,GL,1603320418.0
skibbereen,51.55,-9.27,44.6,87.0,20.0,6.93,IE,1603320418.0
longyearbyen,78.22,15.64,17.6,78.0,20.0,5.82,SJ,1603320418.0
jalu,29.03,21.55,63.7,59.0,0.0,10.56,LY,1603320418.0
palabuhanratu,,,,,,,,
bajil,15.06,43.29,86.77,55.0,3.0,1.16,YE,1603320419.0
alofi,-19.06,-169.92,75.2,100.0,90.0,14.99,NU,1603320419.0
labutta,,,,,,,,
shu,43.6,73.76,53.64,37.0,53.0,7.45,KZ,1603320419.0
deputatskiy,69.3,139.9,5.11,96.0,100.0,1.77,RU,1603320419.0
katsuura,35.13,140.3,61.0,72.0,75.0,12.75,JP,1603320419.0
klyuchi,52.27,79.17,50.14,46.0,81.0,14.65,RU,1603320419.0
mahina,-17.51,-149.49,84.2,66.0,75.0,11.41,PF,1603320419.0
linguere,15.4,-15.12,86.59,16.0,21.0,5.14,SN,1603320419.0
khani,41.96,42.96,51.8,93.0,26.0,3.36,GE,1603320419.0
illoqqortoormiut,,,,,,,,
tual,-5.67,132.75,82.08,80.0,31.0,8.77,ID,1603320420.0
tingrela,,,,,,,,
jumla,29.27,82.18,44.49,59.0,0.0,4.32,NP,1603320420.0
saint-francois,46.42,3.91,62.6,59.0,100.0,5.82,FR,1603320420.0
sao filipe,14.9,-24.5,82.22,67.0,56.0,6.49,CV,1603320420.0
haines junction,60.75,-137.51,26.56,77.0,20.0,2.98,CA,1603320420.0
saint-georges,12.06,-61.75,86.0,74.0,20.0,13.87,GD,1603320420.0
bennington,42.88,-73.2,68.0,68.0,1.0,8.05,US,1603320420.0
bilma,18.69,12.92,79.99,15.0,0.0,5.19,NE,1603320420.0
staraya kulatka,52.72,47.62,31.15,93.0,100.0,8.14,RU,1603320420.0
vilcun,-38.65,-72.23,57.2,62.0,0.0,10.29,CL,1603320420.0
shipunovo,52.16,82.22,50.61,45.0,85.0,23.89,RU,1603320421.0
grand gaube,-20.01,57.66,71.01,88.0,74.0,1.01,MU,1603320421.0
necochea,-38.55,-58.74,52.0,60.0,0.0,10.0,AR,1603320421.0
yanam,16.73,82.22,76.46,96.0,100.0,1.07,IN,1603320421.0
saleaula,,,,,,,,
saint-joseph,-21.37,55.62,71.6,64.0,20.0,6.93,RE,1603320421.0
payao,10.18,122.95,80.85,76.0,78.0,3.33,PH,1603320421.0
ayan,56.45,138.17,41.16,91.0,100.0,13.42,RU,1603320421.0
tukrah,32.53,20.58,65.19,53.0,3.0,2.08,LY,1603320421.0
ust-kuyga,70.02,135.6,10.69,94.0,100.0,3.67,RU,1603320421.0
samusu,,,,,,,,
talnakh,69.49,88.4,12.2,85.0,40.0,15.66,RU,1603320422.0
yerbogachen,61.28,108.01,21.85,96.0,87.0,7.27,RU,1603320422.0
inirida,3.87,-67.92,78.67,89.0,97.0,2.51,CO,1603320422.0
qaanaaq,77.48,-69.36,19.49,82.0,100.0,6.96,GL,1603320422.0
the valley,18.22,-63.06,84.2,74.0,20.0,2.24,AI,1603320391.0
sekoma,-24.4,23.88,75.04,41.0,10.0,17.22,BW,1603320422.0
high prairie,55.43,-116.49,20.21,86.0,99.0,8.7,CA,1603320422.0
san quintin,30.48,-115.95,71.26,69.0,12.0,10.2,MX,1603320152.0
bosaso,11.28,49.18,84.81,37.0,44.0,3.91,SO,1603320422.0
noumea,-22.28,166.46,81.0,65.0,0.0,2.24,NC,1603320422.0
nizhniy kuranakh,58.84,125.49,10.47,93.0,87.0,3.04,RU,1603320423.0
susangerd,31.56,48.18,68.0,49.0,0.0,2.24,IR,1603320423.0
ouadda,8.08,22.4,67.82,85.0,13.0,1.05,CF,1603320423.0
otradnoye,59.78,30.82,37.4,93.0,90.0,6.71,RU,1603320423.0
morehead,37.27,-87.18,82.4,53.0,1.0,3.36,US,1603320423.0
richards bay,-28.78,32.04,63.82,83.0,62.0,4.85,ZA,1603320423.0
george town,5.41,100.34,78.8,88.0,20.0,6.93,MY,1603320423.0
nabire,-3.37,135.48,78.73,84.0,84.0,2.21,ID,1603320423.0
dingle,11.0,122.67,79.57,88.0,61.0,8.19,PH,1603320423.0
innisfail,-17.53,146.03,79.86,62.0,30.0,2.62,AU,1603320423.0
urusha,54.05,122.9,20.17,86.0,8.0,8.75,RU,1603320423.0
narsaq,60.92,-46.05,32.0,87.0,100.0,3.36,GL,1603320424.0
tupiza,-21.45,-65.72,60.55,53.0,42.0,7.63,BO,1603320424.0
sosua,19.77,-70.52,82.4,78.0,40.0,9.17,DO,1603320424.0
chicama,-7.84,-79.15,66.58,73.0,89.0,6.53,PE,1603320424.0
coihaique,-45.58,-72.07,59.0,33.0,0.0,9.17,CL,1603320424.0
yahotyn,50.28,31.76,44.6,87.0,100.0,4.47,UA,1603320424.0
chokwe,-24.53,32.98,70.0,81.0,90.0,8.12,MZ,1603320424.0
wulanhaote,,,,,,,,
marawi,8.0,124.29,75.99,89.0,100.0,4.0,PH,1603320424.0
nhulunbuy,-12.23,136.77,80.6,78.0,40.0,8.05,AU,1603320424.0
piltene,57.22,21.67,51.8,100.0,90.0,8.05,LV,1603320424.0
castro,-24.79,-50.01,63.52,87.0,17.0,10.09,BR,1603320369.0
araouane,18.9,-3.53,87.55,16.0,0.0,5.88,ML,1603320425.0
amahai,-3.33,128.92,84.0,92.0,97.0,3.2,ID,1603320425.0
faya,18.39,42.45,60.8,19.0,0.0,4.7,SA,1603320425.0
auki,-8.77,160.7,82.8,76.0,87.0,2.68,SB,1603320425.0
leningradskiy,69.38,178.42,36.9,79.0,100.0,6.96,RU,1603320425.0
port elizabeth,-33.92,25.57,60.8,93.0,1.0,2.24,ZA,1603320425.0
eirunepe,-6.66,-69.87,79.3,77.0,41.0,1.57,BR,1603320425.0
iqaluit,63.75,-68.51,32.0,94.0,75.0,4.7,CA,1603320251.0
constitucion,-35.33,-72.42,52.48,80.0,3.0,12.01,CL,1603320425.0
atambua,-9.11,124.89,80.73,58.0,4.0,1.9,ID,1603320425.0
aklavik,68.22,-135.01,24.8,68.0,75.0,4.7,CA,1603320425.0
sentyabrskiy,,,,,,,,
grand river south east,,,,,,,,
kangaatsiaq,68.31,-53.46,32.63,91.0,94.0,10.13,GL,1603320426.0
ribeira grande,38.52,-28.7,63.68,69.0,41.0,17.43,PT,1603320426.0
padang,-0.95,100.35,75.27,86.0,100.0,4.81,ID,1603320426.0
saint-augustin,51.23,-58.65,41.09,67.0,81.0,5.41,CA,1603320426.0
comonfort,20.72,-100.77,75.99,29.0,0.0,5.99,MX,1603320426.0
ochamchira,42.71,41.47,57.7,58.0,40.0,4.05,GE,1603320426.0
khlevnoye,52.2,39.09,42.8,70.0,75.0,6.71,RU,1603320426.0
burica,,,,,,,,
ratnagiri,16.98,73.3,76.93,88.0,29.0,4.29,IN,1603320426.0
soria,41.67,-2.67,50.0,92.0,32.0,1.01,ES,1603320426.0
bam,29.11,58.36,60.76,24.0,0.0,8.37,IR,1603320427.0
nome,64.5,-165.41,41.0,86.0,75.0,4.7,US,1603320427.0
znamenskoye,57.13,73.83,34.81,94.0,100.0,8.5,RU,1603320427.0
airai,-8.93,125.41,69.49,58.0,3.0,1.81,TL,1603320427.0
lixourion,38.2,20.43,66.45,64.0,0.0,8.3,GR,1603320427.0
tuggurt,,,,,,,,
uromi,6.7,6.33,71.37,97.0,94.0,3.65,NG,1603320427.0
broken hill,-31.95,141.43,73.4,23.0,51.0,12.75,AU,1603320427.0
touros,-5.2,-35.46,77.0,94.0,75.0,4.7,BR,1603320427.0
aswan,24.09,32.91,75.94,29.0,0.0,5.68,EG,1603320427.0
bengkulu,-3.8,102.27,76.91,84.0,100.0,3.74,ID,1603320427.0
kattivakkam,13.22,80.32,80.6,94.0,75.0,2.24,IN,1603320428.0
la rioja,42.25,-2.5,57.99,76.0,19.0,4.7,ES,1603320428.0
wanning,18.8,110.4,69.46,83.0,100.0,13.53,CN,1603320428.0
bjornevatn,69.67,29.98,19.4,100.0,90.0,6.93,NO,1603320428.0
camboriu,,,,,,,,
gamba,-2.65,10.0,76.12,90.0,100.0,4.5,GA,1603320428.0
karratha,-20.74,116.85,72.5,40.0,79.0,6.06,AU,1603320428.0
aflu,,,,,,,,
henties bay,-22.12,14.28,61.0,88.0,59.0,1.01,NA,1603320428.0
domingos martins,-20.36,-40.66,75.99,88.0,90.0,6.93,BR,1603320428.0
svetlogorsk,52.63,29.73,45.07,88.0,100.0,5.55,BY,1603320428.0
ikom,5.97,8.71,74.26,95.0,82.0,1.79,NG,1603320429.0
skiros,,,,,,,,
cap-aux-meules,47.38,-61.86,48.2,81.0,90.0,16.11,CA,1603320429.0
gayny,60.31,54.32,27.27,96.0,99.0,9.71,RU,1603320429.0
broome,42.25,-75.83,69.8,60.0,75.0,10.29,US,1603320429.0
barrow,71.29,-156.79,33.8,96.0,90.0,16.11,US,1603320429.0
hihifo,,,,,,,,
antalaha,-14.9,50.28,72.77,84.0,100.0,8.32,MG,1603320429.0
gat,31.61,34.76,73.99,82.0,0.0,6.11,IL,1603320429.0
saint-pierre,-21.34,55.48,71.6,64.0,20.0,6.93,RE,1603320429.0
mar del plata,-38.0,-57.56,53.01,53.0,0.0,11.41,AR,1603320429.0
ponta do sol,32.67,-17.1,64.4,55.0,20.0,5.82,PT,1603320430.0
mitu,1.2,-70.17,76.32,90.0,100.0,1.72,CO,1603320430.0
baherden,38.44,57.43,55.31,40.0,13.0,2.01,TM,1603320430.0
uvira,-3.41,29.15,74.84,69.0,79.0,3.58,CD,1603320430.0
yerofey pavlovich,53.97,121.97,18.66,87.0,2.0,5.14,RU,1603320430.0
itaituba,-4.28,-55.98,77.14,86.0,94.0,2.13,BR,1603320430.0
tsumeb,-19.23,17.72,72.68,19.0,4.0,6.38,NA,1603320430.0
mizoch,50.4,26.15,50.0,87.0,100.0,11.01,UA,1603320430.0
almaznyy,48.04,40.05,44.6,65.0,100.0,6.82,RU,1603320430.0
vagur,61.47,-6.81,43.95,68.0,20.0,16.17,FO,1603320430.0
cayenne,4.93,-52.33,82.4,74.0,9.0,3.36,GF,1603320393.0
brigantine,39.41,-74.36,71.6,78.0,1.0,5.82,US,1603320431.0
cedar city,37.68,-113.06,75.2,8.0,1.0,16.11,US,1603320431.0
lorengau,-2.02,147.27,82.29,78.0,95.0,7.74,PG,1603320431.0
zhezkazgan,47.8,67.71,41.14,62.0,77.0,11.23,KZ,1603320431.0
sao jose da coroa grande,-8.9,-35.15,77.25,85.0,1.0,9.4,BR,1603320431.0
shimoda,34.67,138.95,57.99,84.0,94.0,14.85,JP,1603320431.0
sarkand,45.41,79.92,53.01,35.0,0.0,6.29,KZ,1603320431.0
capinopolis,-18.68,-49.57,80.08,59.0,94.0,2.98,BR,1603320431.0
marienburg,54.04,19.03,50.0,85.0,97.0,4.0,PL,1603320431.0
leshan,29.56,103.76,55.06,85.0,60.0,0.58,CN,1603320431.0
guerrero negro,27.98,-114.06,74.16,65.0,6.0,14.63,MX,1603320432.0
egvekinot,66.32,-179.17,32.88,100.0,88.0,6.55,RU,1603320432.0
gao,16.64,1.64,89.17,12.0,8.0,9.75,ML,1603320432.0
marovoay,-16.1,46.63,78.8,69.0,20.0,8.05,MG,1603320432.0
berbera,10.44,45.01,84.09,48.0,1.0,2.89,SO,1603320432.0
kabinda,-6.13,24.48,68.2,92.0,83.0,2.57,CD,1603320432.0
wilmington island,32.0,-80.97,73.4,88.0,75.0,3.36,US,1603320432.0
abu dhabi,24.47,54.37,77.0,83.0,0.0,9.15,AE,1603320132.0
san patricio,28.02,-97.52,84.2,70.0,1.0,14.99,US,1603320432.0
manacor,39.57,3.21,68.0,77.0,20.0,2.24,ES,1603320432.0
mandalgovi,45.76,106.27,23.22,90.0,0.0,7.76,MN,1603320432.0
novaya ladoga,60.1,32.3,36.0,99.0,88.0,12.1,RU,1603320433.0
talcahuano,-36.72,-73.12,59.0,67.0,0.0,13.87,CL,1603320433.0
pilot butte,50.47,-104.42,28.99,58.0,40.0,4.32,CA,1603320433.0
xichang,27.9,102.26,48.81,75.0,88.0,1.45,CN,1603320433.0
mongoumba,3.64,18.59,69.85,96.0,86.0,1.45,CF,1603320433.0
coquimbo,-29.95,-71.34,57.2,76.0,20.0,11.41,CL,1603320433.0
margate,51.38,1.39,57.0,83.0,40.0,4.0,GB,1603320433.0
bayir,37.27,28.22,59.0,87.0,40.0,4.7,TR,1603320433.0
sorland,67.67,12.69,38.5,73.0,80.0,13.69,NO,1603320433.0
lompoc,34.64,-120.46,68.0,72.0,1.0,13.87,US,1603320290.0
isla mujeres,21.23,-86.73,86.0,70.0,75.0,12.75,MX,1603320284.0
saint george,37.1,-113.58,84.99,10.0,1.0,12.39,US,1603320433.0
kingsland,30.8,-81.69,75.2,88.0,40.0,12.75,US,1603320434.0
faanui,-16.48,-151.75,78.62,76.0,10.0,12.33,PF,1603320434.0
jaen,38.0,-3.5,64.0,62.0,100.0,5.99,ES,1603320434.0
jahrom,,,,,,,,
laguna,38.42,-121.42,89.01,20.0,1.0,6.93,US,1603320434.0
bria,6.54,21.99,68.49,94.0,35.0,1.39,CF,1603320434.0
kulhudhuffushi,6.62,73.07,81.21,81.0,95.0,11.23,MV,1603320434.0
stoyba,,,,,,,,
kaitangata,-46.28,169.85,59.47,49.0,93.0,3.94,NZ,1603320434.0
kichera,55.94,110.1,28.56,95.0,97.0,1.14,RU,1603320434.0
tadine,-21.55,167.88,77.38,76.0,3.0,10.85,NC,1603320434.0
purranque,-40.92,-73.17,60.8,55.0,0.0,10.29,CL,1603320230.0
avera,33.19,-82.53,77.0,73.0,1.0,5.82,US,1603320434.0
prince rupert,54.32,-130.32,46.4,70.0,20.0,5.82,CA,1603320435.0
santa marta,11.24,-74.2,81.18,78.0,40.0,7.94,CO,1603320435.0
conakry,9.54,-13.68,80.64,84.0,97.0,9.37,GN,1603320364.0
jiayuguan,39.82,98.3,38.62,59.0,0.0,4.18,CN,1603320435.0
hofn,64.25,-15.21,35.89,79.0,73.0,7.29,IS,1603320435.0
madimba,-10.4,40.33,73.4,94.0,20.0,6.93,TZ,1603320435.0
jaguaquara,-13.53,-39.97,65.41,88.0,0.0,5.73,BR,1603320435.0
bubaque,11.28,-15.83,81.93,83.0,98.0,11.18,GW,1603320435.0
northam,51.03,-4.22,54.0,97.0,86.0,5.99,GB,1603320435.0
ternate,0.8,127.4,81.73,77.0,90.0,4.23,ID,1603320228.0
roald,62.58,6.13,42.8,75.0,100.0,18.34,NO,1603320435.0
caravelas,-17.71,-39.25,75.33,79.0,100.0,6.62,BR,1603320318.0
luderitz,-26.65,15.16,60.01,75.0,0.0,22.93,NA,1603320436.0
kem,64.96,34.58,28.69,97.0,44.0,4.97,RU,1603320436.0
adrar,20.5,-10.07,86.76,17.0,100.0,5.3,MR,1603320436.0
serenje,-13.23,30.24,68.13,47.0,13.0,7.2,ZM,1603320436.0
soverato,38.69,16.55,50.0,87.0,48.0,8.05,IT,1603320436.0
sechura,-5.56,-80.82,69.62,68.0,21.0,17.6,PE,1603320436.0
nanakuli,21.39,-158.15,82.4,74.0,1.0,11.41,US,1603320436.0
ilhabela,-23.78,-45.36,71.83,87.0,14.0,5.53,BR,1603320436.0
neryungri,56.67,124.65,5.43,93.0,69.0,4.52,RU,1603320436.0
clyde river,70.47,-68.59,15.8,72.0,1.0,5.82,CA,1603320436.0
misratah,32.38,15.09,70.48,63.0,0.0,10.33,LY,1603320436.0
manggar,-2.88,108.27,80.56,82.0,74.0,4.5,ID,1603320437.0
cockburn town,21.46,-71.14,80.6,78.0,40.0,9.17,TC,1603320437.0
sheopur,25.67,76.7,75.11,30.0,52.0,3.69,IN,1603320437.0
roma,43.21,-75.46,60.8,82.0,90.0,10.29,US,1603320437.0
namatanai,-3.67,152.43,84.29,69.0,56.0,7.67,PG,1603320437.0
terrace,54.52,-128.6,39.2,80.0,75.0,2.24,CA,1603320437.0
asau,46.43,26.4,48.2,81.0,97.0,12.75,RO,1603320437.0
privokzalnyy,,,,,,,,
toma,12.77,-2.88,85.84,33.0,40.0,7.76,BF,1603320437.0
marcona,,,,,,,,
pandamatenga,-18.53,25.63,76.19,45.0,0.0,13.4,BW,1603320437.0
xingyi,24.19,102.82,44.22,95.0,32.0,3.4,CN,1603320438.0
brazzaville,-4.27,15.28,74.86,83.0,94.0,1.07,CG,1603320358.0
nicoya,10.15,-85.45,78.8,88.0,75.0,5.82,CR,1603320438.0
shahrud,36.42,54.98,51.89,68.0,1.0,8.88,IR,1603320438.0
jarjis,,,,,,,,
zyryanka,65.75,150.85,15.22,92.0,86.0,11.83,RU,1603320438.0
patea,-39.76,174.48,62.56,63.0,40.0,7.25,NZ,1603320438.0
beloha,-25.17,45.05,69.15,76.0,0.0,9.24,MG,1603320438.0
upernavik,72.79,-56.15,25.48,95.0,82.0,5.55,GL,1603320438.0
kolyshley,52.7,44.54,37.0,47.0,99.0,6.67,RU,1603320438.0
waingapu,-9.66,120.26,80.74,72.0,0.0,2.28,ID,1603320438.0
alta floresta,-9.88,-56.09,75.74,83.0,74.0,5.06,BR,1603320439.0
urumqi,43.8,87.6,44.6,42.0,0.0,8.95,CN,1603320439.0
tandil,-37.32,-59.13,54.0,61.0,49.0,3.0,AR,1603320439.0
caxito,-8.58,13.66,77.0,78.0,20.0,6.93,AO,1603320439.0
belmonte,-15.86,-38.88,77.0,73.0,20.0,9.17,BR,1603320439.0
singtam,27.23,88.5,65.37,41.0,0.0,4.59,IN,1603320439.0
veraval,20.9,70.37,81.93,78.0,55.0,10.58,IN,1603320439.0
berlevag,70.86,29.09,31.46,93.0,26.0,9.33,NO,1603320439.0
kailua,21.4,-157.74,82.4,78.0,75.0,12.75,US,1603320348.0
codrington,-38.27,141.97,54.32,75.0,69.0,7.05,AU,1603320439.0
eyl,7.98,49.82,80.98,77.0,1.0,5.39,SO,1603320439.0
caraquet,47.79,-64.94,41.0,100.0,90.0,3.36,CA,1603320439.0
anadyr,64.75,177.48,37.4,86.0,75.0,11.18,RU,1603320439.0
mandera,3.94,41.87,81.09,65.0,71.0,18.63,KE,1603320440.0
vao,-22.67,167.48,73.31,85.0,0.0,14.38,NC,1603320440.0
sao joao da barra,-21.64,-41.05,74.01,88.0,4.0,11.32,BR,1603320440.0
loukhi,66.08,33.04,27.66,98.0,57.0,4.07,RU,1603320440.0
walvis bay,-22.96,14.51,61.0,77.0,81.0,12.75,NA,1603320440.0
havoysund,71.0,24.66,26.6,79.0,0.0,13.87,NO,1603320440.0
jacareacanga,-6.22,-57.75,74.53,86.0,97.0,1.14,BR,1603320440.0
bhopal,23.27,77.4,71.94,43.0,28.0,2.13,IN,1603320305.0
outjo,-20.12,16.15,59.63,48.0,89.0,12.3,NA,1603320440.0
kantang,7.41,99.52,81.0,94.0,100.0,2.77,TH,1603320440.0
shar,49.59,81.05,49.1,47.0,0.0,15.57,KZ,1603320441.0
shaunavon,49.65,-108.42,22.86,96.0,100.0,11.77,CA,1603320441.0
lodja,-3.48,23.43,70.93,88.0,90.0,2.08,CD,1603320441.0
kiama,-34.68,150.87,66.0,87.0,82.0,3.0,AU,1603320441.0
los llanos de aridane,28.66,-17.92,69.8,64.0,40.0,3.36,ES,1603320441.0
nautla,20.22,-96.78,81.09,74.0,24.0,9.37,MX,1603320441.0
porto novo,6.5,2.6,80.6,88.0,40.0,8.05,BJ,1603320441.0
college,64.86,-147.8,26.01,85.0,90.0,1.5,US,1603320441.0
lushunkou,,,,,,,,
toora-khem,52.47,96.11,25.93,96.0,10.0,2.21,RU,1603320441.0
manaure,11.78,-72.44,83.95,76.0,13.0,14.52,CO,1603320441.0
portland,45.52,-122.68,59.0,44.0,20.0,13.87,US,1603319852.0
pisco,-13.7,-76.22,68.0,68.0,20.0,23.04,PE,1603320442.0
tepalcatepec,19.18,-102.85,88.07,57.0,24.0,3.85,MX,1603320442.0
tamiahua,21.27,-97.45,81.07,77.0,10.0,7.38,MX,1603320442.0
port alberni,49.24,-124.8,57.0,60.0,1.0,3.47,CA,1603320302.0
mayumba,-3.43,10.66,77.07,87.0,100.0,3.6,GA,1603320442.0
lavrentiya,65.58,-171.0,38.3,85.0,0.0,5.64,RU,1603320442.0
lusambo,-4.97,23.45,70.95,87.0,85.0,1.81,CD,1603320442.0
santa cruz de la palma,28.68,-17.76,69.8,64.0,40.0,3.36,ES,1603320442.0
sampit,-2.53,112.95,76.8,91.0,100.0,0.63,ID,1603320442.0
pendleton,45.67,-118.79,50.0,61.0,75.0,23.04,US,1603320442.0
paulo afonso,-9.41,-38.21,78.42,64.0,24.0,13.76,BR,1603320442.0
kwinana,-32.25,115.77,57.0,81.0,0.0,5.82,AU,1603320443.0
mapastepec,15.43,-92.9,82.31,77.0,34.0,3.2,MX,1603320443.0
nelidovo,56.22,32.78,38.44,98.0,96.0,4.14,RU,1603320443.0
vaitupu,,,,,,,,
silyanah,,,,,,,,
bougouni,11.42,-7.48,80.69,51.0,95.0,3.0,ML,1603320443.0
san miguel,13.48,-88.18,82.4,78.0,20.0,2.24,SV,1603320443.0
blagoveshchenka,52.83,79.87,48.45,49.0,97.0,16.33,RU,1603320443.0
provideniya,64.38,-173.3,39.2,86.0,90.0,6.71,RU,1603320443.0
nishihara,26.18,127.76,75.2,100.0,75.0,6.93,JP,1603320443.0
qasigiannguit,68.82,-51.19,26.6,73.0,88.0,4.7,GL,1603320443.0
ambon,-3.7,128.18,77.0,94.0,20.0,5.82,ID,1603320228.0
nagua,19.38,-69.85,82.4,83.0,20.0,6.93,DO,1603320443.0
coro,11.4,-69.67,82.13,81.0,5.0,15.3,VE,1603320444.0
manokwari,-0.87,134.08,82.54,67.0,99.0,3.33,ID,1603320150.0
paka,4.64,103.44,77.0,94.0,100.0,3.29,MY,1603320444.0
nowy sacz,49.62,20.7,46.99,86.0,73.0,7.56,PL,1603320444.0
pratapgarh,24.03,74.78,76.23,58.0,55.0,2.98,IN,1603320444.0
vaitape,-16.52,-151.75,79.48,74.0,9.0,12.24,PF,1603320444.0
governador valadares,-18.85,-41.95,74.44,78.0,22.0,4.52,BR,1603320177.0
vila velha,-20.33,-40.29,75.99,88.0,90.0,6.93,BR,1603320444.0
swan hill,-35.34,143.55,66.33,52.0,34.0,7.49,AU,1603320444.0
coos bay,43.37,-124.22,59.0,58.0,1.0,19.46,US,1603320444.0
svetlyy,54.67,20.13,51.8,93.0,90.0,6.71,RU,1603320444.0
tagusao,9.19,117.81,80.53,79.0,100.0,5.79,PH,1603320445.0
orlik,52.52,99.83,19.44,87.0,24.0,3.33,RU,1603320445.0
ust-kamchatsk,,,,,,,,
camacari,-12.7,-38.32,80.6,74.0,20.0,9.17,BR,1603320445.0
leshukonskoye,64.9,45.76,22.51,98.0,44.0,3.65,RU,1603320445.0
omboue,-1.57,9.26,76.5,89.0,100.0,6.44,GA,1603320445.0
talanga,14.4,-87.08,82.0,100.0,75.0,8.05,HN,1603320445.0
fare,-16.7,-151.02,79.75,73.0,3.0,10.87,PF,1603320445.0
saint-louis,16.33,-15.0,86.0,45.0,0.0,7.92,SN,1603320445.0
maningrida,-12.07,134.27,84.2,62.0,74.0,4.45,AU,1603320445.0
kamenka,51.32,42.77,35.01,92.0,100.0,7.11,RU,1603320445.0
along,28.17,94.77,62.13,84.0,11.0,1.86,IN,1603320445.0
dmitriyevka,54.75,55.33,32.0,92.0,75.0,15.66,RU,1603320446.0
kongolo,-5.38,27.0,70.93,93.0,100.0,1.9,CD,1603320446.0
wewak,-3.55,143.63,78.08,86.0,100.0,10.49,PG,1603320446.0
mao,39.89,4.27,68.0,88.0,20.0,9.17,ES,1603320446.0
mineros,-17.12,-63.23,84.2,70.0,75.0,5.82,BO,1603320446.0
tazovskiy,67.47,78.7,16.29,97.0,88.0,9.98,RU,1603320446.0
hambantota,6.12,81.12,78.8,94.0,40.0,6.93,LK,1603320446.0
salalah,17.02,54.09,80.6,78.0,20.0,3.36,OM,1603320446.0
mussomeli,37.58,13.75,64.99,65.0,0.0,1.99,IT,1603320446.0
saryshagan,,,,,,,,
hay river,60.82,-115.8,26.6,68.0,75.0,18.34,CA,1603320446.0
kutum,14.2,24.67,74.7,18.0,0.0,9.8,SD,1603320446.0
kaoma,-14.78,24.8,71.64,24.0,0.0,7.52,ZM,1603320447.0
tabiauea,,,,,,,,
port lincoln,-34.73,135.87,60.24,78.0,93.0,19.77,AU,1603320447.0
scottsbluff,41.87,-103.67,73.4,27.0,1.0,16.11,US,1603320447.0
tayibe,,,,,,,,
atar,20.52,-13.05,87.44,25.0,23.0,4.45,MR,1603320447.0
tyrma,50.08,132.17,35.13,86.0,1.0,4.5,RU,1603320447.0
utiroa,,,,,,,,
balaghat,21.8,80.18,67.35,56.0,78.0,5.19,IN,1603320447.0
mashivka,49.44,34.87,50.92,77.0,100.0,10.04,UA,1603320447.0
mungwi,-10.17,31.37,67.59,56.0,53.0,4.16,ZM,1603320447.0
abulug,18.45,121.45,79.5,82.0,84.0,12.59,PH,1603320447.0
yemanzhelinsk,54.75,61.32,28.4,86.0,20.0,6.71,RU,1603320447.0
batemans bay,-35.72,150.18,64.99,84.0,28.0,5.75,AU,1603320448.0
christchurch,-43.53,172.63,61.0,67.0,84.0,4.7,NZ,1603320236.0
oranjemund,-28.55,16.43,64.45,54.0,0.0,11.99,NA,1603320448.0
taoudenni,22.68,-3.98,82.13,16.0,64.0,7.52,ML,1603320448.0
kalaleh,37.38,55.49,61.65,79.0,92.0,3.96,IR,1603320448.0
darhan,49.49,105.92,28.72,85.0,0.0,6.89,MN,1603320448.0
conceicao do araguaia,-8.26,-49.26,87.85,43.0,54.0,4.9,BR,1603320448.0
brae,60.4,-1.35,48.2,76.0,99.0,24.16,GB,1603320448.0
lolua,,,,,,,,
severnoye,56.35,78.36,39.58,72.0,100.0,8.14,RU,1603320448.0
chara,56.91,118.26,9.48,82.0,65.0,1.97,RU,1603320448.0
lebu,-37.62,-73.65,48.78,79.0,0.0,15.66,CL,1603320449.0
nytva,57.94,55.33,30.2,86.0,90.0,11.18,RU,1603320449.0
oga,46.46,10.35,44.01,69.0,47.0,3.36,IT,1603320449.0
sandusky,41.35,-83.13,59.0,75.0,99.0,2.26,US,1603320449.0
kaduna,10.52,7.44,73.15,35.0,0.0,3.4,NG,1603320449.0
talara,-4.58,-81.27,65.28,84.0,14.0,15.99,PE,1603320449.0
vabalninkas,55.97,24.75,49.14,96.0,100.0,11.5,LT,1603320449.0
biak,-0.91,122.88,78.73,71.0,74.0,3.76,ID,1603320449.0
marsh harbour,26.54,-77.06,80.11,75.0,100.0,19.86,BS,1603320449.0
dombarovskiy,50.76,59.54,35.42,85.0,59.0,17.63,RU,1603320449.0
sorvag,,,,,,,,
sakhipur,24.3,90.18,80.6,83.0,75.0,4.7,BD,1603320449.0
avinurme,58.98,26.86,45.0,97.0,100.0,3.0,EE,1603320450.0
paramonga,-10.67,-77.83,63.99,83.0,31.0,9.1,PE,1603320450.0
dianopolis,,,,,,,,
samarai,-10.62,150.67,80.47,81.0,47.0,9.42,PG,1603320450.0
mormugao,15.4,73.8,77.0,100.0,75.0,4.7,IN,1603320450.0
hong gai,20.96,107.09,69.8,64.0,42.0,4.7,VN,1603320450.0
puerto del rosario,28.5,-13.86,73.4,73.0,20.0,5.82,ES,1603320450.0
pimentel,-6.84,-79.93,63.66,84.0,51.0,16.28,PE,1603320450.0
zlatoustovsk,,,,,,,,
gorno-chuyskiy,,,,,,,,
kirakira,-10.45,161.92,84.96,67.0,14.0,7.36,SB,1603320450.0
bathurst,-33.42,149.58,68.0,65.0,17.0,1.01,AU,1603320271.0
birjand,32.87,59.22,41.0,14.0,0.0,4.7,IR,1603320451.0
santa maria,-29.68,-53.81,68.88,77.0,18.0,14.14,BR,1603320451.0
nogales,31.31,-110.94,91.0,14.0,1.0,10.29,MX,1603320451.0
kolokani,13.57,-8.03,80.24,31.0,14.0,4.61,ML,1603320451.0
guane,22.2,-84.09,79.03,82.0,92.0,7.78,CU,1603320451.0
mutsamudu,,,,,,,,
paita,-5.09,-81.11,65.34,82.0,8.0,17.0,PE,1603320451.0
butterworth,5.4,100.36,78.8,88.0,20.0,6.93,MY,1603320451.0
armacao dos buzios,,,,,,,,
carlos chagas,-17.7,-40.77,72.97,88.0,85.0,8.75,BR,1603320451.0
pano aqil,27.86,69.11,64.4,82.0,0.0,5.14,PK,1603320451.0
gazojak,41.19,61.4,45.59,66.0,28.0,7.4,TM,1603320451.0
tucano,-10.96,-38.79,75.29,72.0,10.0,12.82,BR,1603320452.0
cabra,37.47,-4.44,63.0,71.0,100.0,1.01,ES,1603320452.0
nguru,12.88,10.45,83.14,15.0,15.0,8.48,NG,1603320452.0
itapaci,-14.95,-49.55,70.38,89.0,100.0,3.42,BR,1603320452.0
gogrial,8.53,28.1,74.46,87.0,26.0,4.25,SS,1603320452.0
zhanaozen,43.3,52.8,40.24,70.0,40.0,1.5,KZ,1603320452.0
santa eulalia del rio,,,,,,,,
yumen,40.28,97.2,34.45,71.0,0.0,6.29,CN,1603320452.0
bereda,43.27,-7.54,53.01,98.0,22.0,1.01,ES,1603320452.0
sur,22.57,59.53,73.78,65.0,84.0,6.58,OM,1603320452.0
salinopolis,-0.61,-47.36,80.47,77.0,74.0,13.6,BR,1603320452.0
buala,-8.14,159.59,82.02,75.0,97.0,9.06,SB,1603320452.0
port shepstone,-30.74,30.45,64.74,82.0,40.0,14.9,ZA,1603320452.0
ndioum,16.51,-14.65,86.0,45.0,0.0,7.81,SN,1603320453.0
makakilo city,21.35,-158.09,82.4,74.0,1.0,11.41,US,1603320453.0
sambava,-14.27,50.17,74.79,79.0,97.0,13.56,MG,1603320453.0
rio gallegos,-51.62,-69.22,59.0,47.0,97.0,4.7,AR,1603320453.0
kupang,-10.17,123.58,77.0,83.0,20.0,2.24,ID,1603320228.0
port moresby,-9.44,147.18,82.4,78.0,40.0,11.41,PG,1603320453.0
vung tau,10.35,107.08,77.81,88.0,61.0,10.56,VN,1603320453.0
goundam,16.41,-3.67,89.73,16.0,0.0,10.36,ML,1603320453.0
kawalu,-7.38,108.21,72.97,88.0,89.0,1.77,ID,1603320453.0
bandundu,-3.32,17.37,73.49,94.0,100.0,2.71,CD,1603320453.0
hohhot,40.81,111.65,30.2,42.0,0.0,8.95,CN,1603320453.0
brawley,32.98,-115.53,97.0,15.0,1.0,8.05,US,1603320300.0
santander,43.46,-3.8,66.2,52.0,7.0,10.29,ES,1603320454.0
andenes,69.31,16.12,33.8,64.0,6.0,11.41,NO,1603320454.0
huilong,31.81,121.66,61.0,91.0,84.0,8.48,CN,1603320454.0
rajpipla,21.87,73.5,79.14,77.0,59.0,1.25,IN,1603320454.0
nova olinda do norte,-3.89,-59.09,75.18,90.0,98.0,4.88,BR,1603320454.0
maun,-19.98,23.42,80.6,47.0,0.0,18.34,BW,1603320454.0
eureka,40.8,-124.16,64.4,52.0,1.0,18.34,US,1603320431.0
bolonchen,,,,,,,,
ancud,-41.87,-73.82,55.99,71.0,20.0,6.93,CL,1603320454.0
longlac,,,,,,,,
malanje,-9.54,16.34,65.19,92.0,95.0,3.62,AO,1603320454.0
praya,14.92,-23.51,80.6,78.0,67.0,17.22,CV,1603320455.0
treinta y tres,-33.23,-54.38,56.48,77.0,100.0,11.79,UY,1603320455.0
mocambique,,,,,,,,
isiro,2.77,27.62,68.05,98.0,100.0,0.78,CD,1603320455.0
rorvik,64.86,11.24,37.53,77.0,68.0,7.34,NO,1603320455.0
lingao,19.91,109.69,70.84,78.0,78.0,13.24,CN,1603320455.0
barreirinha,-2.79,-57.07,80.8,72.0,83.0,1.97,BR,1603320455.0
hualmay,-11.1,-77.61,64.65,80.0,20.0,9.82,PE,1603320455.0
krasnoselkup,65.7,82.47,19.04,98.0,65.0,7.38,RU,1603320455.0
namtsy,62.72,129.67,5.0,84.0,20.0,4.47,RU,1603320455.0
vytegra,61.01,36.45,29.3,96.0,74.0,4.94,RU,1603320455.0
okha,53.57,142.95,46.65,92.0,100.0,12.91,RU,1603320455.0
